stop_id,stop_code,stop_name,stop_desc,stop_lat,stop_lon,zone_id,stop_url,location_type,platform_code,parent_station
1000_親,,帯広駅バスターミナル,親（駅・ターミナル）,42.9183318330811,143.203424111165,,,1,,
1000_01,,帯広駅バスターミナル,,42.918091,143.203766952381,1000_01,,0,,1000_親
1000_02,2番のりば,帯広駅バスターミナル,ターミナル2番のりば,42.9181203333334,143.203641761905,1000_02,,0,2,1000_親
1000_03,3番のりば,帯広駅バスターミナル,ターミナル3番のりば,42.918246,143.203402428572,1000_03,,0,3,1000_親
1000_04,4番のりば,帯広駅バスターミナル,ターミナル4番のりば,42.918326,143.203227,1000_04,,0,4,1000_親
1000_06,6番のりば,帯広駅バスターミナル,ターミナル5番のりば,42.918634998991,143.203425254184,1000_06,,0,6,1000_親
1001_01,,駅北11丁目,郊外方面行きのみ停車,42.919629,143.202304,1001_01,,0,,
1003_01,,西2条9丁目,郊外方面行きのみ停車,42.922027,143.201985,1003_01,,0,,
1005_01,,西2条7丁目,郊外方面行きのみ停車,42.924135,143.201694,1005_01,,0,,
1007_01,,西2条4丁目,,42.927751,143.201233,1007_01,,0,,
1007_02,,西2条4丁目,,42.927981,143.201415,1007_02,,0,,
1008_01,,西2条2丁目,郊外方面行きのみ停車,42.929719,143.200973,1008_01,,0,,
1009_01,,西2条1丁目,交差点北側・北行,42.9321396666667,143.200681571428,1009_01,,0,,
1009_02,,西2条1丁目,交差点南側・南行,42.931362,143.200944,1009_02,,0,,
1009_03,,西2条1丁目,交差点西側・西行,42.931678,143.200115,1009_03,,0,,
1101_01,,西5条1丁目,,42.931714,143.195926,1101_01,,0,,
1101_02,,西5条1丁目,,42.931632,143.196761,1101_02,,0,,
1102_01,,西5条北3丁目,,42.933413,143.195725,1102_01,,0,,
1102_02,,西5条北3丁目,,42.933439,143.195919,1102_02,,0,,
1103_01,,西5条北4丁目,,42.93487,143.194851,1103_01,,0,,
1103_02,,西5条北4丁目,,42.935019,143.195104,1103_02,,0,,
1104_01,,西7条北4丁目,交差点東側・西行,42.934736,143.192997,1104_01,,0,,
1104_02,,西7条北4丁目,交差点東側・東行,42.934856,143.192885,1104_02,,0,,
1105_01,,西9条北4丁目,,42.935043,143.190403,1105_01,,0,,
1105_02,,西9条北4丁目,,42.935181,143.190406,1105_02,,0,,
1106_01,,西11条北5丁目,,42.935809,143.187285,1106_01,,0,,
1106_02,,西11条北5丁目,,42.935895,143.187211,1106_02,,0,,
1107_01,,西13条北5丁目,,42.935552,143.183633,1107_01,,0,,
1107_02,,西13条北5丁目,,42.93567,143.183544,1107_02,,0,,
1108_01,,西13条北6丁目,,42.936861,143.182816,1108_01,,0,,
1108_02,,西13条北6丁目,,42.936906,143.182918,1108_02,,0,,
1109_01,,一中前,,42.939773,143.182458,1109_01,,0,,
1109_02,,一中前,,42.939777,143.182545,1109_02,,0,,
1110_01,,西13条北8丁目,,42.940368,143.181048,1110_01,,0,,
1110_02,,西13条北8丁目,,42.940464,143.180569428571,1110_02,,0,,
1111_01,,西15条北8丁目,,42.940106,143.177319,1111_01,,0,,
1111_02,,西15条北8丁目,,42.940232,143.177362714286,1111_02,,0,,
1112_01,,西16条北2丁目,,42.93979,143.172619,1112_01,,0,,
1112_02,,西16条北2丁目,,42.939878,143.172230714286,1112_02,,0,,
1113_01,,西17条北2丁目,,42.939485,143.168456,1113_01,,0,,
1113_02,,西17条北2丁目,,42.939554,143.168142,1113_02,,0,,
1114_01,,栄保育園前,,42.93924,143.164645,1114_01,,0,,
1114_02,,栄保育園前,,42.939257,143.163991,1114_02,,0,,
1150_01,,拓殖バス本社前,バス停ポールは車庫出入口前,42.955381,143.159660857143,1150_01,,0,,
1150_02,,拓殖バス本社前,,42.955316,143.159649428571,1150_02,,0,,
1120_01,,北報和,,42.937611,143.162421,1120_01,,0,,
1120_02,,北報和,,42.937449,143.162150428571,1120_02,,0,,
1121_01,,国立帯広病院前,,42.936108,143.162615,1121_01,,0,,
1121_02,,国立帯広病院前,,42.936004,143.162314571429,1121_02,,0,,
1122_01,,西17条北1丁目,,42.934237,143.163518,1122_01,,0,,
1122_02,,西17条北1丁目,,42.934102,143.163462,1122_02,,0,,
1123_01,,栄小学校前,,42.934425,143.166211,1123_01,,0,,
1123_02,,栄小学校前,,42.934309,143.166255,1123_02,,0,,
1124_01,,西16条,,42.934719,143.170368,1124_01,,0,,
1124_02,,西16条,,42.934586,143.170125,1124_02,,0,,
1125_01,,西16条中央,,42.9349,143.17283,1125_01,,0,,
1125_02,,西16条中央,,42.934752,143.172327,1125_02,,0,,
1126_01,,開発官舎前,,42.935085,143.1755,1126_01,,0,,
1126_02,,開発官舎前,,42.934969,143.175434,1126_02,,0,,
1127_01,,西15条北3丁目,,42.933052,143.176621190476,1127_01,,0,,
1127_02,,西15条北3丁目,,42.933054,143.176448,1127_02,,0,,
1128_01,,協立病院前,,42.9305526666667,143.176956095238,1128_01,,0,,
1128_02,,協立病院前,,42.930705,143.17676,1128_02,,0,,
1129_01,,玄武住宅前,,42.930413,143.179963,1129_01,,0,,
1129_02,,玄武住宅前,,42.930215,143.17982,1129_02,,0,,
1130_01,,西13条1丁目,,42.930639,143.183046,1130_01,,0,,
1130_02,,西13条1丁目,,42.930403,143.182574,1130_02,,0,,
1131_01,,西12条2丁目,,42.929174,143.185381,1131_01,,0,,
1131_02,,西12条2丁目,,42.929133,143.185151,1131_02,,0,,
1132_01,,西11条2丁目,,42.928463,143.186428,1132_01,,0,,
1132_02,,西11条2丁目,,42.928347,143.186362,1132_02,,0,,
1133_01,,西10条3丁目,,42.928609,143.188166,1133_01,,0,,
1133_02,,西10条3丁目,,42.928452,143.187819,1133_02,,0,,
1134_01,,北栄校前,,42.928837,143.191255,1134_01,,0,,
1134_02,,北栄校前,,42.928695,143.191204,1134_02,,0,,
1181_01,,問屋町6丁目,,42.926067,143.193746142857,1181_01,,0,,
1181_02,,問屋町6丁目,,42.9261843333333,143.193561142857,1181_02,,0,,
1135_01,,西7条3丁目,,42.928996,143.193495,1135_01,,0,,
1135_02,,西7条3丁目,,42.928785,143.192509,1135_02,,0,,
1136_01,,西5条3丁目,,42.929155,143.195799,1136_01,,0,,
1136_02,,西5条3丁目,,42.929031,143.195958,1136_02,,0,,
1137_01,,西5条4丁目,,42.927172,143.196755,1137_01,,0,,
1137_02,,西5条4丁目,,42.927155,143.196556,1137_02,,0,,
1182_01,,帯広市役所南口,,42.923291,143.195035,1182_01,,0,,
1182_02,,帯広市役所南口,,42.923108,143.194916,1182_02,,0,,
1138_01,,NHK前,,42.923446,143.197805,1138_01,,0,,
1138_02,,NHK前,,42.923313,143.197859,1138_02,,0,,
1139_01,,帯広中央公園前,一中・療養所線の帯広駅方面行きのみ停車,42.923652,143.200642,1139_01,,0,,
1004_02,,西2条8丁目,,42.9230055071802,143.202115286582,1004_02,,0,,
1002_02,,かじのビル前,,42.9208138405135,143.202401000868,1002_02,,0,,
1161_01,,帯広駅西口,,42.918968,143.202014714286,1161_01,,0,,
1162_01,,西3条9丁目,,42.921829,143.200291,1162_01,,0,,
1006_02,,西2条6丁目,,42.9252565557514,143.201797268066,1006_02,,0,,
1206_01,,記念碑前,,42.913318,143.197576285714,1206_01,,0,,
1206_02,,記念碑前,,42.913638,143.197528571429,1206_02,,0,,
1201_01,,帯広郵便局前,,42.922381,143.201145,1201_01,,0,,
1201_02,,帯広郵便局前,,42.922519,143.200959,1201_02,,0,,
1202_01,,帯広第2合同庁舎前,,42.922173,143.19829,1202_01,,0,,
1202_02,,帯広第2合同庁舎前,,42.922294,143.198119,1202_02,,0,,
1203_01,,西5条13丁目,,42.918077,143.198045,1203_01,,0,,
1203_02,,西5条13丁目,,42.917821,143.197828,1203_02,,0,,
1204_01,,長崎屋前,,42.917132,143.198847,1204_01,,0,,
1204_02,,長崎屋前,,42.91696,143.198712,1204_02,,0,,
1205_01,,第一病院前,,42.915151,143.19964,1205_01,,0,,
1205_02,,第一病院前,,42.915343,143.199463,1205_02,,0,,
1207_01,,春駒通8条,,42.911294,143.193108,1207_01,,0,,
1207_02,,春駒通8条,,42.911399,143.192804,1207_02,,0,,
1208_01,,春駒通10条,,42.911124,143.190904,1208_01,,0,,
1208_02,,春駒通10条,,42.911195,143.190033,1208_02,,0,,
1209_01,,春駒通12条,,42.910925,143.188046,1209_01,,0,,
1209_02,,春駒通12条,,42.91105,143.187929,1209_02,,0,,
1210_01,,春駒通13条,,42.910745,143.18552,1210_01,,0,,
1210_02,,春駒通13条,,42.910857,143.185214,1210_02,,0,,
1211_01,,緑ヶ丘小学校前,,42.910417,143.182905,1211_01,,0,,
1211_02,,緑ヶ丘小学校前,,42.909844,143.182801,1211_02,,0,,
1212_01,,緑ヶ丘大通,,42.908278,143.183156,1212_01,,0,,
1212_02,,緑ヶ丘大通,,42.9077529999999,143.183070285714,1212_02,,0,,
1213_01,,緑ヶ丘6丁目（帯広美術館入口）,,42.906617,143.183381,1213_01,,0,,
1213_02,,緑ヶ丘6丁目（帯広美術館入口）,,42.905994,143.183274,1213_02,,0,,
1214_01,,常盤通6丁目,,42.905133,143.179369142857,1214_01,,0,,
1214_02,,常盤通6丁目,,42.905295,143.179818714286,1214_02,,0,,
1215_01,,西16条6丁目,,42.904795,143.174709571429,1215_01,,0,,
1215_02,,西16条6丁目,,42.904964,143.17515,1215_02,,0,,
1216_01,,八中前,,42.904528,143.170884,1216_01,,0,,
1216_02,,八中前,,42.904692,143.171527,1216_02,,0,,
1217_01,,西17条6丁目,,42.904179,143.167163285714,1217_01,,0,,
1217_02,,西17条6丁目,,42.904428,143.168012,1217_02,,0,,
1218_01,,自由が丘1丁目,,42.903886,143.16368,1218_01,,0,,
1218_02,,自由が丘1丁目,,42.904107,143.163305,1218_02,,0,,
1219_01,,自由が丘2丁目,,42.903651,143.160349,1219_01,,0,,
1219_02,,自由が丘2丁目,,42.903892,143.160617,1219_02,,0,,
1220_01,,自由が丘3丁目,,42.903428,143.157122,1220_01,,0,,
1220_02,,自由が丘3丁目,,42.903641,143.157038,1220_02,,0,,
1221_01,,西19条6丁目,,42.903179,143.153835,1221_01,,0,,
1221_02,,西19条6丁目,,42.903396,143.153707,1221_02,,0,,
1241_01,,森の交流館下,,42.90304,143.151768,1241_01,,0,,
1241_02,,森の交流館下,,42.903175,143.150614,1241_02,,0,,
1222_01,,自由が丘団地,,42.900514,143.153673,1222_01,,0,,
1222_02,,自由が丘団地,,42.900513,143.153484,1222_02,,0,,
1223_01,,自由が丘6丁目,,42.898237,143.152717857142,1223_01,,0,,
1223_02,,自由が丘6丁目,,42.898328,143.152628714285,1223_02,,0,,
1224_01,,国際センター入口,,42.897985,143.149612,1224_01,,0,,
1224_02,,国際センター入口,,42.898093,143.149635,1224_02,,0,,
1225_01,,西20条6丁目,,42.898471,143.146855714286,1225_01,,0,,
1225_02,,西20条6丁目,,42.89846,143.14714,1225_02,,0,,
1226_01,,西10号6丁目（きぼう公園前）,,42.903372,143.146205,1226_01,,0,,
1226_02,,西10号6丁目（きぼう公園前）,,42.903218,143.146486,1226_02,,0,,
1227_01,,西10号5丁目（西20条中央）,,42.905721,143.145882285714,1227_01,,0,,
1227_02,,西10号5丁目（西20条中央）,,42.905731,143.146185,1227_02,,0,,
1228_01,,西20条5丁目,,42.907357,143.145706857143,1228_01,,0,,
1228_02,,西20条5丁目,,42.907136,143.146004,1228_02,,0,,
1230_01,,南商業高校前,,42.907482,143.142614,1230_01,,0,,
1231_01,,とりで公園前,,42.909598,143.141518,1231_01,,0,,
1232_01,,公住新緑団地前,,42.911793,143.141205,1232_01,,0,,
1233_01,,新緑通21条（メガドンキホーテ西帯広店前）,,42.912689,143.143346,1233_01,,0,,
1234_01,,西20条4丁目,,42.90989,143.145666428571,1234_01,,0,,
1261_01,,帯広の森野球場前,道路上,42.892635,143.146122,1261_01,,0,,
1261_02,,帯広の森野球場前,道路上,42.892835,143.146546,1261_02,,0,,
1262_01,,帯広の森体育館前,,42.892331,143.141672,1262_01,,0,,
1262_02,,帯広の森体育館前,,42.89251,143.142014,1262_02,,0,,
1263_01,,帯広の森屋内スケート場前,,42.892186,143.139396,1263_01,,0,,
1263_02,,帯広の森屋内スケート場前,,42.892294,143.138867,1263_02,,0,,
1270_01,,白樺学園前,,42.891585,143.134968,1270_01,,0,,
1270_02,,白樺学園前,,42.891557,143.134585,1270_02,,0,,
1252_01,,西8条15丁目,,42.9141123333333,143.19371,1252_01,,0,,
1252_02,,西8条15丁目,,42.9141523333333,143.193363714286,1252_02,,0,,
1251_01,,西8条13丁目,,42.916771,143.193334,1251_01,,0,,
1251_02,,西8条13丁目,,42.9168793333333,143.192977809524,1251_02,,0,,
1281_01,,帯広駅南口,,42.916867,143.202285714286,1281_01,,0,,
1281_02,,帯広駅南口,バス停ポール無し。対向車線側に設置のポール対面に停,42.916957,143.202394285715,1281_02,,0,,
2010_01,,鈴蘭公園入口,,42.942667,143.203889,2010_01,,0,,
2010_02,,鈴蘭公園入口,,42.941367,143.203664142857,2010_02,,0,,
2011_01,,木野郵便局前,,42.944622,143.204174,2011_01,,0,,
2011_02,,木野郵便局前,,42.944367,143.204371,2011_02,,0,,
2012_01,,木野農協前,,42.947442,143.204627,2012_01,,0,,
2012_02,,木野農協前,,42.946504,143.204699,2012_02,,0,,
2013_01,,鈴蘭橋,,42.950006,143.205028,2013_01,,0,,
2013_02,,鈴蘭橋,,42.948857,143.205023,2013_02,,0,,
2014_01,,木野大通8丁目,,42.951779,143.205217,2014_01,,0,,
2014_02,,木野大通8丁目,,42.951607,143.205405857143,2014_02,,0,,
2301_01,,JA福祉施設前,,42.952059,143.203158,2301_01,,0,,
2301_02,,JA福祉施設前,,42.952144,143.203401,2301_02,,0,,
2302_01,,木野西通9丁目,,42.952652,143.202379,2302_01,,0,,
2302_02,,木野西通9丁目,,42.953182,143.202441285714,2302_02,,0,,
2303_01,,木野西通11丁目,,42.955683,143.202009,2303_01,,0,,
2303_02,,木野西通11丁目,,42.955704,143.202121571429,2303_02,,0,,
2304_01,,共栄台幼稚園前,交差点北側・北行,42.957477,143.198247,2304_01,,0,,
2304_02,,共栄台幼稚園前,交差点北側・南行,42.957148,143.198428571429,2304_02,,0,,
2305_01,,共栄団地,,42.958933,143.198054,2305_01,,0,,
2305_02,,共栄団地,,42.958964,143.198184571429,2305_02,,0,,
2306_01,,共栄台13丁目,,42.960797,143.197809,2306_01,,0,,
2306_02,,共栄台13丁目,,42.960968,143.197888,2306_02,,0,,
2307_01,,音更病院前,,42.963178,143.19748,2307_01,,0,,
2307_02,,音更病院前,,42.963849,143.197533714286,2307_02,,0,,
2308_01,,緑陽台南区,,42.966109,143.197079,2308_01,,0,,
2308_02,,緑陽台南区,,42.965978,143.197203285714,2308_02,,0,,
2309_01,,緑陽台公園前,,42.96941,143.196597,2309_01,,0,,
2309_02,,緑陽台公園前,,42.969163,143.196738,2309_02,,0,,
2310_01,,緑陽台8線,,42.972633,143.196172857143,2310_01,,0,,
2310_02,,緑陽台8線,,42.9730670000001,143.196255857143,2310_02,,0,,
2311_01,,緑陽台北区,,42.975987,143.195694,2311_01,,0,,
2311_02,,緑陽台北区,,42.975968,143.195809,2311_02,,0,,
2312_01,,音更大通20丁目,,42.9772356666667,143.197937380952,2312_01,,0,,
2312_02,,音更大通20丁目,,42.977245,143.198059,2312_02,,0,,
2313_01,,南住吉台,,42.981509,143.197366428571,2313_01,,0,,
2313_02,,南住吉台,,42.981445,143.197497,2313_02,,0,,
2314_01,,緑ヶ丘病院前,,42.984057,143.196999,2314_01,,0,,
2314_02,,緑ヶ丘病院前,,42.984817,143.197104,2314_02,,0,,
2315_01,,大谷短大前,,42.989351,143.196328285714,2315_01,,0,,
2315_02,,大谷短大前,,42.989373,143.196467,2315_02,,0,,
2316_01,,サンドームおとふけ前,,42.9914743333333,143.196052857143,2316_01,,0,,
2316_02,,サンドームおとふけ前,,42.991359,143.196210428571,2316_02,,0,,
2317_01,,希望が丘公園前,,42.991827,143.19243,2317_01,,0,,
2317_02,,希望が丘公園前,,42.991892,143.192586,2317_02,,0,,
2318_01,,雄飛が丘南区,,42.993928,143.192149,2318_01,,0,,
2318_02,,雄飛が丘南区,,42.994055,143.192297,2318_02,,0,,
2319_01,,音更中学校前,,42.995894,143.191868,2319_01,,0,,
2319_02,,音更中学校前,,42.995989,143.192024,2319_02,,0,,
2320_01,,雄飛が丘会館前,,42.998383,143.191511,2320_01,,0,,
2320_02,,雄飛が丘会館前,,42.998413,143.191695,2320_02,,0,,
2321_01,,雄飛が丘仲区,,43.000487,143.191228,2321_01,,0,,
2321_02,,雄飛が丘仲区,,43.001146,143.191323,2321_02,,0,,
2322_01,,雄飛が丘仲公園前,,43.001228,143.188697,2322_01,,0,,
2322_02,,雄飛が丘仲公園前,,43.001383,143.189198,2322_02,,0,,
2330_01,,雄飛が丘北区,,43.004014,143.18749,2330_01,,0,,
2330_02,,雄飛が丘北区,,43.003951,143.187768857143,2330_02,,0,,
2330_03,,雄飛が丘北区,,43.0039224634734,143.187815418752,2330_03,,0,,
2502_01,,音更西1線,,43.012135,143.186364,2502_01,,0,,
2502_02,,音更西1線,,43.012551,143.186492,2502_02,,0,,
2503_01,,門前8号,バス停ポール無。交差点付近に停車。,43.0164533333333,143.185838857143,2503_01,,0,,
2503_02,,門前8号,バス停ポール無。交差点付近に停車。,43.0163816666666,143.185970285714,2503_02,,0,,
2504_01,,門前9号,,43.0209386666667,143.18525152381,2504_01,,0,,
2504_02,,門前9号,,43.020942,143.185424857143,2504_02,,0,,
2505_01,,門前10号,バス停ポール無し。対向車線側に設置のポール対面に停,43.0263300000002,143.184500714286,2505_01,,0,,
2505_02,,門前10号,,43.0262733333333,143.184721666666,2505_02,,0,,
2506_01,,門前,バス停ポール無し。対向車線側に設置のポール対面に停,43.031581,143.183824904762,2506_01,,0,,
2506_02,,門前,,43.0315243333333,143.184043952381,2506_02,,0,,
2550_親,,音更高校前,親（駅・ターミナル）,43.0410003962377,143.176775479669,,,1,,
2550_01,道道上・北行,音更高校前,道道上・北行,43.041851,143.176601333333,2550_01,,0,,2550_親
2550_02,道道上・南行,音更高校前,道道上・南行,43.042131,143.176583714286,2550_02,,0,,2550_親
2550_03,高校構内1番のりば,音更高校前,高校構内1番のりば,43.041246,143.17692147619,2550_03,,0,1,2550_親
2550_04,高校構内2番のりば,音更高校前,高校構内2番のりば,43.041058,143.176798619048,2550_04,,0,2,2550_親
2550_05,高校構内3番のりば,音更高校前,高校構内3番のりば,43.0409090000001,143.176703095238,2550_05,,0,3,2550_親
2550_06,高校構内4番のりば,音更高校前,高校構内4番のりば,43.0407885849508,143.176678728202,2550_06,,0,4,2550_親
2550_07,,音更高校前,,43.0406459649678,143.176711696443,2550_07,,0,,2550_親
1453_01,,北親福祉センター,,42.9373653333333,143.192256904762,1453_01,,0,,
1453_02,,北親福祉センター,,42.937332,143.192095,1453_02,,0,,
1452_01,,西8条北7丁目,,42.939858,143.190720380952,1452_01,,0,,
1452_02,,西8条北7丁目,,42.939758,143.190568,1452_02,,0,,
1451_01,,西11条北8丁目,,42.940826,143.185355857143,1451_01,,0,,
1451_02,,西11条北8丁目,,42.940701,143.185413,1451_02,,0,,
2450_01,,おおや整形前,,42.948721,143.188759,2450_01,,0,,
2450_02,,おおや整形前,,42.948801,143.188896142857,2450_02,,0,,
2450_03,,おおや整形前,,42.9486884313178,143.188824123127,2450_03,,0,,
2445_01,,南鈴蘭南5丁目,,42.9479049999999,143.191269714286,2445_01,,0,,
2445_02,,南鈴蘭南5丁目,,42.94815,143.190944,2445_02,,0,,
2444_01,,南鈴蘭南3丁目,,42.947202,143.193934285714,2444_01,,0,,
2444_02,,南鈴蘭南3丁目,,42.947227,143.1945,2444_02,,0,,
2443_01,,南鈴蘭,,42.947166,143.196074285714,2443_01,,0,,
2443_02,,南鈴蘭,,42.947176,143.195942857143,2443_02,,0,,
2442_01,,清和,,42.94928,143.196024428572,2442_01,,0,,
2442_02,,清和,,42.94938,143.195853,2442_02,,0,,
2441_01,,清和北,,42.951217,143.195749428572,2441_01,,0,,
2441_02,,清和北,,42.951107,143.195600857143,2441_02,,0,,
2440_01,,下音更中学校前,,42.95303,143.194399142857,2440_01,,0,,
2440_02,,下音更中学校前,,42.952945,143.194422,2440_02,,0,,
2439_01,,鈴蘭保育園前,,42.953935,143.191699047619,2439_01,,0,,
2439_02,,鈴蘭保育園前,,42.953905,143.191539047619,2439_02,,0,,
2438_01,,中鈴蘭,,42.954058,143.188220142857,2438_01,,0,,
2438_02,,中鈴蘭,,42.953983,143.188283,2438_02,,0,,
2437_01,,青葉町,,42.955184,143.187266,2437_01,,0,,
2437_02,,青葉町,,42.955369,143.187100285714,2437_02,,0,,
2436_01,,北鈴蘭南4丁目,,42.955983,143.188917142857,2436_01,,0,,
2436_02,,北鈴蘭南4丁目,,42.956193,143.1897,2436_02,,0,,
2435_01,,北蘭団地,,42.9561409999999,143.191440857143,2435_01,,0,,
2435_02,,北蘭団地,,42.956391,143.192498,2435_02,,0,,
2434_01,,共栄新橋,,42.956404,143.194959714286,2434_01,,0,,
2434_02,,共栄新橋,,42.956564,143.194914,2434_02,,0,,
2433_01,,共栄台幼稚園前,交差点南側・北行,42.955953,143.198492571429,2433_01,,0,,
2433_02,,共栄台幼稚園前,交差点南側・南行,42.955953,143.198584,2433_02,,0,,
2432_01,,木野新町公園前,,42.953944,143.199501,2432_01,,0,,
2432_02,,木野新町公園前,,42.953999,143.199552428571,2432_02,,0,,
2431_01,,木野コミセン前,,42.952201,143.200805285714,2431_01,,0,,
2431_02,,木野コミセン前,,42.952206,143.200891,2431_02,,0,,
1457_01,,北栄校正門前,,42.9292106666667,143.19331947619,1457_01,,0,,
1457_02,,北栄校正門前,,42.929269,143.193129,1457_02,,0,,
1456_01,,西7条北1丁目,,42.9316883333333,143.192937380952,1456_01,,0,,
1456_02,,西7条北1丁目,,42.931705,143.192785,1456_02,,0,,
1455_01,,西7条北2丁目,,42.9340263333333,143.192666047619,1455_01,,0,,
1455_02,,西7条北2丁目,,42.934293,143.192447,1455_02,,0,,
2015_01,,木野大通12丁目,,42.958212,143.205971571429,2015_01,,0,,
2015_02,,木野大通12丁目,,42.956822,143.205983,2015_02,,0,,
2016_01,,木野大通14丁目,,42.961314,143.206328285714,2016_01,,0,,
2016_02,,木野大通14丁目,,42.961269,143.206494,2016_02,,0,,
2017_01,,木野大通15丁目,,42.96469,143.206665428571,2017_01,,0,,
2017_02,,木野大通15丁目,,42.96509,143.206962571429,2017_02,,0,,
2018_01,,木野大通16丁目,,42.9682530000001,143.207097857143,2018_01,,0,,
2018_02,,木野大通16丁目,,42.967953,143.207275,2018_02,,0,,
2019_01,,木野大通18丁目,,42.973454,143.207689857143,2019_01,,0,,
2019_02,,木野大通18丁目,,42.971639,143.207667,2019_02,,0,,
2020_01,,よつ葉乳業前,,42.978049,143.207480285714,2020_01,,0,,
2020_02,,よつ葉乳業前,,42.978114,143.207686,2020_02,,0,,
2021_01,,音更新通17丁目,,42.981851,143.206093,2021_01,,0,,
2021_02,,音更新通17丁目,,42.982011,143.206253,2021_02,,0,,
2022_01,,音更新通15丁目,,42.986313,143.204475857143,2022_01,,0,,
2022_02,,音更新通15丁目,,42.986158,143.204733,2022_02,,0,,
2023_01,,音更新通11丁目,,42.9914889999999,143.203015285714,2023_01,,0,,
2023_02,,音更新通11丁目,,42.991969,143.203061,2023_02,,0,,
2024_01,,音更大通11丁目,交差点北側・南行,42.992091,143.201394714286,2024_01,,0,,
2024_02,,音更大通11丁目,交差点東側・西行,42.9924360000001,143.200451857143,2024_02,,0,,
2024_03,,音更大通11丁目,交差点西側・東行,42.9921003431167,143.199704443321,2024_03,,0,,
2025_01,,音更役場前,,42.993449,143.199653142857,2025_01,,0,,
2025_02,,音更役場前,,42.994509,143.199213142857,2025_02,,0,,
2027_01,,プロスパ6,,42.997448,143.197948571429,2027_01,,0,,
2027_02,,プロスパ6,,42.997468,143.198125714286,2027_02,,0,,
2028_01,,音更大通4丁目,,42.999816,143.197309428571,2028_01,,0,,
2028_02,,音更大通4丁目,,42.999536,143.197583714286,2028_02,,0,,
2029_01,,音更大通1丁目,,43.001513,143.196895857143,2029_01,,0,,
2029_02,,音更大通1丁目,,43.001578,143.197015857143,2029_02,,0,,
2501_01,,音更車両センター前,,43.005257,143.193617285714,2501_01,,0,,
2501_02,,音更車両センター前,,43.005287,143.193783,2501_02,,0,,
2507_01,,駒場中学校前,バス停ポール無し。対向車線側に設置のポール対面に停,43.042658,143.184351285714,2507_01,,0,,
2507_02,,駒場中学校前,,43.042623,143.184562714286,2507_02,,0,,
2508_01,,駒場,,43.0476479999999,143.185401285715,2508_01,,0,,
2508_02,,駒場,,43.047833,143.185167,2508_02,,0,,
2509_01,,駒場郵便局前,,43.048365,143.181495571428,2509_01,,0,,
2509_02,,駒場郵便局前,,43.0485,143.181667,2509_02,,0,,
2552_01,,十勝牧場,,43.0492496666667,143.151214285714,2552_01,,0,,
2552_02,,十勝牧場,,43.049333,143.1515,2552_02,,0,,
2553_01,,東士狩入口,,43.0460079999999,143.130638714286,2553_01,,0,,
2553_02,,東士狩入口,バス停ポール無し。対向車線側に設置のポール対面に停,43.046158,143.130648238095,2553_02,,0,,
2554_01,,誉橋,バス停ポール無し。対向車線側に設置のポール対面に停,43.047022,143.125698714286,2554_01,,0,,
2554_02,,誉橋,,43.047197,143.125624428571,2554_02,,0,,
2555_01,,上然別,バス停ポール無し。対向車線側に設置のポール対面に停,43.046213,143.113934285715,2555_01,,0,,
2555_02,,上然別,,43.046388,143.11306,2555_02,,0,,
2556_01,,音更集団研修施設前,,43.0495433333333,143.096901285715,2556_01,,0,,
2556_02,,音更集団研修施設前,,43.049455,143.097604142857,2556_02,,0,,
2557_01,,上然別6線,,43.05288,143.084437142857,2557_01,,0,,
2557_02,,上然別6線,,43.053065,143.084528571429,2557_02,,0,,
3501_01,,町界,バス停ポール無し。対向車線側に設置のポール対面に停,43.057822,143.063553,3501_01,,0,,
3501_02,,町界,,43.057972,143.063678714285,3501_02,,0,,
3502_01,,上然別10線,バス停ポール無し。対向車線側に設置のポール対面に停,43.062072,143.055028571429,3502_01,,0,,
3502_02,,上然別10線,,43.062237,143.054982857143,3502_02,,0,,
3503_01,,上然別11線,バス停ポール無し。対向車線側に設置のポール対面に停,43.061663,143.049327285714,3503_01,,0,,
3503_02,,上然別11線,,43.061833,143.049321571429,3503_02,,0,,
3504_01,,新然別,バス停ポールは帯広駅方面行のみ設置,43.0614303333333,143.046027619048,3504_01,,0,,
3504_02,,新然別,,43.0615953333333,143.04598952381,3504_02,,0,,
3505_01,,新然別13線,,43.065312,143.034614904762,3505_01,,0,,
3505_02,,新然別13線,,43.065357,143.036293,3505_02,,0,,
3506_01,,鹿追橋,,43.065042,143.024383571429,3506_01,,0,,
3506_02,,鹿追橋,,43.065292,143.026503571429,3506_02,,0,,
3507_01,,鹿追2号,,43.0705519999999,143.016189857143,3507_01,,0,,
3507_02,,鹿追2号,,43.071177,143.016207,3507_02,,0,,
3508_01,,鹿追4号,バス停ポール無し。対向車線側に設置のポール対面に停,43.073593,143.012604142857,3508_01,,0,,
3508_02,,鹿追4号,,43.073793,143.012638428572,3508_02,,0,,
3509_01,,鹿追5号,,43.0767396666667,143.007250142858,3509_01,,0,,
3509_02,,鹿追5号,バス停ポール無し。対向車線側に設置のポール対面に停,43.0768563333333,143.007398714286,3509_02,,0,,
3510_01,,鹿追6号,,43.0784813333333,143.004194619048,3510_01,,0,,
3510_02,,鹿追6号,,43.0793663333334,143.003019380952,3510_02,,0,,
3511_01,,下市街,,43.083573,142.995866571429,3511_01,,0,,
3511_02,,下市街,,43.082743,142.997038,3511_02,,0,,
3512_01,,トリムセンター前,,43.094707,142.989880142857,3512_01,,0,,
3512_02,,トリムセンター前,,43.093812,142.990743,3512_02,,0,,
3513_01,,神田日勝記念美術館前（道の駅しかおい）,,43.0971250000001,142.988308571428,3513_01,,0,,
3513_02,,神田日勝記念美術館前（道の駅しかおい）,,43.0965,142.989,3513_02,,0,,
3514_親,,中市街,親（駅・ターミナル）,43.0989513333333,142.987278809524,,,1,,
3514_01,1番のりば,中市街,交差点東側・東行,43.099403,142.987461857143,3514_01,,0,1,3514_親
3514_02,2番のりば,中市街,交差点南側・南行,43.098468,142.987707571428,3514_02,,0,2,3514_親
3514_03,3番のりば,中市街,交差点西側・西行,43.098983,142.986667,3514_03,,0,3,3514_親
3514_04,,中市街,バス停ポール無。交差点北側に停車,43.0993744309713,142.986864356399,3514_04,,0,,3514_親
3540_01,,鹿追高校前,,43.103672,142.984518428571,3540_01,,0,,
3515_01,,鹿追役場前,,43.1001546666667,142.989603809524,3515_01,,0,,
3515_02,,鹿追役場前,,43.0999630000001,142.989491428572,3515_02,,0,,
3516_01,,新町1丁目,,43.102162,142.991052714286,3516_01,,0,,
3516_02,,新町1丁目,,43.101667,142.991167,3516_02,,0,,
3517_01,,新町2丁目,,43.104065,142.991689857143,3517_01,,0,,
3517_02,,新町2丁目,,43.1034,142.991707,3517_02,,0,,
3550_01,,鹿追営業所前,,43.1064333333333,142.993528571429,3550_01,,0,,
3550_02,,鹿追営業所前,,43.1063955923381,142.993647353799,3550_02,,0,,
3551_01,,泉町3丁目,,43.107271,142.989303571429,3551_01,,0,,
3551_02,,泉町3丁目,,43.107346,142.989835,3551_02,,0,,
3552_01,,西町3丁目,,43.108303,142.983618714286,3552_01,,0,,
3552_02,,西町3丁目,,43.108438,142.983870142857,3552_02,,0,,
3553_01,,山岸農園前（カントリーパパ）,,43.1155586666667,142.984581285714,3553_01,,0,,
3553_02,,山岸農園前（カントリーパパ）,,43.115632,142.984798428572,3553_02,,0,,
2026_01,,音更小学校前,,42.995518,143.198483714286,2026_01,,0,,
2026_02,,音更小学校前,,42.996206,143.19847,2026_02,,0,,
3554_01,,大草原の小さな家,,43.1265066666667,142.988254333333,3554_01,,0,,
3554_02,,大草原の小さな家,,43.12645,142.988469571429,3554_02,,0,,
3555_01,,笹川,,43.1308383333333,142.989656333333,3555_01,,0,,
3555_02,,笹川,,43.1310200000001,142.989963,3555_02,,0,,
3556_01,,笹川北10線,バス停ポール無。交差点付近に停車。,43.1386601559133,142.992219520468,3556_01,,0,,
3556_02,,笹川北10線,バス停ポール無。交差点付近に停車。,43.1386134892467,142.992413806182,3556_02,,0,,
3557_01,,笹川北11線,,43.1419983689128,142.993371705656,3557_01,,0,,
3557_02,,笹川北11線,バス停ポール無し。対向車線側に設置のポール対面に停,43.1419483689128,142.993623134228,3557_02,,0,,
3558_01,,自衛隊前,,43.147533,142.995199666667,3558_01,,0,,
3558_02,,自衛隊前,,43.147333,142.995384428571,3558_02,,0,,
3561_01,,瓜幕22号,,43.1691396666667,143.004575857143,3561_01,,0,,
3561_02,,瓜幕22号,バス停ポール無し。対向車線側に設置のポール対面に停,43.1690963333334,143.00481395238,3561_02,,0,,
3559_01,,笹川北14線,バス停ポール無。交差点付近に停車。,43.1551249037513,142.997735704349,3559_01,,0,,
3559_02,,笹川北14線,バス停ポール無。交差点付近に停車。,43.1550899037513,142.997979513873,3559_02,,0,,
3560_01,,笹川北15線,バス停ポール無。交差点付近に停車。,43.1602183325411,142.999478283731,3560_01,,0,,
3560_02,,笹川北15線,バス停ポール無。交差点付近に停車。,43.1601883325411,142.999643998017,3560_02,,0,,
3562_01,,坂の上,バス停ポール無し。対向車線側に設置のポール対面に停,43.16826344235,143.011169515337,3562_01,,0,,
3562_02,,坂の上,,43.16812844235,143.011135229623,3562_02,,0,,
3563_01,,瓜幕西住宅前,,43.166458,143.02087652381,3563_01,,0,,
3563_02,,瓜幕西住宅前,,43.166153,143.021552714286,3563_02,,0,,
3564_01,,瓜幕,,43.166032,143.024647285714,3564_01,,0,,
3564_02,,瓜幕,,43.166097,143.024927285714,3564_02,,0,,
3565_01,,ライディングパーク（道の駅うりまく）,,43.168938,143.025672714286,3565_01,,0,,
3565_02,,ライディングパーク（道の駅うりまく）,,43.168583,143.025855571429,3565_02,,0,,
3566_01,,藤田牧場,バス停ポール無し。対向車線側に設置のポール対面に停,43.18593,143.026804428571,3566_01,,0,,
3566_02,,藤田牧場,,43.18608,143.026861571429,3566_02,,0,,
3567_01,,瓜幕26号,バス停ポール無し。対向車線側に設置のポール対面に停,43.186555,143.024742857143,3567_01,,0,,
3567_02,,瓜幕26号,,43.186535,143.024971428571,3567_02,,0,,
3568_01,,森のキッチンかわい,バス停ポール無し。対向車線側に設置のポール対面に停,43.19353,143.027127285714,3568_01,,0,,
3568_02,,森のキッチンかわい,,43.193495,143.027373,3568_02,,0,,
3570_01,,坂下,,43.221248,143.037099,3570_01,,0,,
3570_02,,坂下,バス停ポール無し。対向車線側に設置のポール対面に停,43.2211080000001,143.037219,3570_02,,0,,
3571_01,,扇ヶ原展望台,バス停ポールは展望台駐車場内（上下線共通）,43.2433316666667,143.076574,3571_01,,0,,
3572_01,,白雲橋（白雲山登山口）,バス停ポール無し。対向車線側に設置のポール対面に停,43.26587,143.101195571429,3572_01,,0,,
3572_02,,白雲橋（白雲山登山口）,,43.2658233333333,143.101460333334,3572_02,,0,,
3580_01,,然別湖（然別湖畔温泉）,,43.273772,143.105048571429,3580_01,,0,,
3580_02,,然別湖（然別湖畔温泉）,,43.273817,143.104962857143,3580_02,,0,,
3591_01,,鹿追土木現業所前,,43.097357,142.982007142857,3591_01,,0,,
3591_02,,鹿追土木現業所前,バス停ポール無し。対向車線側に設置のポール対面に停,43.097522,142.981892857143,3591_02,,0,,
3592_01,,幌内西23線,バス停ポール無し。対向車線側に設置のポール対面に停,43.085378,142.964637285715,3592_01,,0,,
3592_02,,幌内西23線,,43.0855646666667,142.964631571428,3592_02,,0,,
3593_01,,熊牛27号,バス停ポール無し。対向車線側に設置のポール対面に停,43.089567,142.929110142857,3593_01,,0,,
3593_02,,熊牛27号,,43.0896536666667,142.929296809524,3593_02,,0,,
4500_01,,幸町4丁目,,43.0949,142.905447952381,4500_01,,0,,
4500_02,,幸町4丁目,,43.094945,142.905587,4500_02,,0,,
4500_03,,幸町4丁目,,43.0950213254133,142.905562559487,4500_03,,0,,
4501_01,,幸町2丁目,,43.0982996666667,142.904385714286,4501_01,,0,,
4501_02,,幸町2丁目,,43.098343,142.904522857143,4501_02,,0,,
4502_01,,柏町1丁目,,43.1008246666666,142.903562238095,4502_01,,0,,
4502_02,,柏町1丁目,,43.101338,142.903627,4502_02,,0,,
4503_01,,屈足総合会館前,,43.1036753333333,142.902728238095,4503_01,,0,,
4503_02,,屈足総合会館前,,43.103677,142.902867285714,4503_02,,0,,
4504_01,,屈足22号,,43.1046746666667,142.902423809524,4504_01,,0,,
4504_02,,屈足22号,,43.104833,142.9025,4504_02,,0,,
4505_01,,立教寺前,,43.104878,142.899285380953,4505_01,,0,,
4505_02,,立教寺前,,43.104973,142.899258714286,4505_02,,0,,
4506_01,,屈足中学校前,,43.1045186666667,142.897092714286,4506_01,,0,,
4506_02,,屈足中学校前,,43.104627,142.897075571428,4506_02,,0,,
4507_01,,佐幌東2線,バス停ポール無。交差点付近に停車。,43.09728,142.876184428571,4507_01,,0,,
4507_02,,佐幌東2線,バス停ポール無。交差点付近に停車。,43.09743,142.876115857143,4507_02,,0,,
4509_01,,佐幌6号,,43.094498,142.863945714286,4509_01,,0,,
4509_02,,佐幌6号,,43.094363,142.862505714286,4509_02,,0,,
4510_01,,かえで団地,,43.092118,142.853117142857,4510_01,,0,,
4510_02,,かえで団地,,43.092403,142.85358,4510_02,,0,,
4512_01,,新得橋,,43.087253,142.834006,4512_01,,0,,
4512_02,,新得橋,,43.086924,142.833958,4512_02,,0,,
4513_01,,新得運動公園口,,43.082342,142.839475857143,4513_01,,0,,
4513_02,,新得運動公園口,,43.082167,142.839333,4513_02,,0,,
1454_01,,西7条北4丁目,,42.9354953333333,143.192474904762,1454_01,,0,,
1454_02,,西7条北4丁目,,42.9354043333333,143.192315571429,1454_02,,0,,
4515_01,,新得クリニック前,,43.0785,142.838333,4515_01,,0,,
4515_02,,新得クリニック前,,43.078575,142.838235857143,4515_02,,0,,
4516_01,,オダッシュ通,,43.078008,142.836388571429,4516_01,,0,,
4516_02,,オダッシュ通,,43.078128,142.836337142858,4516_02,,0,,
4517_01,,本通3丁目,,43.08022,142.834270142857,4517_01,,0,,
4517_02,,本通3丁目,,43.08025,142.834435857143,4517_02,,0,,
4550_01,,新得駅前,,43.082132,142.83288,4550_01,,0,,
4550_02,,新得駅前,,43.082167,142.833,4550_02,,0,,
4551_01,,小松整骨院前,,43.084022,142.832678714286,4551_01,,0,,
4551_02,,小松整骨院前,,43.084002,142.832855857143,4551_02,,0,,
4552_01,,新得神社前,,43.08293,142.828541,4552_01,,0,,
4552_02,,新得神社前,,43.08303,142.82846,4552_02,,0,,
4560_01,,新得小学校前,,43.081343,142.826207,4560_01,,0,,
4560_02,,新得小学校前,,43.081308,142.826081285714,4560_02,,0,,
4561_01,,サホロクリニック前,,43.07897,142.827205714286,4561_01,,0,,
4561_02,,サホロクリニック前,,43.079,142.827034285714,4561_02,,0,,
4562_01,,ひばりの団地,,43.076833,142.828074285714,4562_01,,0,,
4562_02,,ひばりの団地,,43.076808,142.827954285714,4562_02,,0,,
4563_01,,若草団地,,43.073258,142.829555857143,4563_01,,0,,
4563_02,,若草団地,,43.073338,142.829373,4563_02,,0,,
4564_01,,新得高等支援学校前,,43.0723253333333,142.833772714286,4564_01,,0,,
4564_02,,新得高等支援学校前,,43.072117,142.833624142857,4564_02,,0,,
4570_01,,南新得（新得営業所）,バス停ポールは車庫内事務所前,43.070333,142.839167,4570_01,,0,,
4570_02,,南新得（新得営業所）,,43.070283,142.838928904762,4570_02,,0,,
2601_01,,音更新通1丁目,,43.002087,143.198929,2601_01,,0,,
2601_02,,音更新通1丁目,,43.001965,143.199009,2601_02,,0,,
2602_01,,音更みはる野団地,,43.003477,143.19865,2602_01,,0,,
2602_02,,音更みはる野団地,,43.003393,143.198891,2602_02,,0,,
2603_01,,音更7号,,43.013415,143.204024,2603_01,,0,,
2603_02,,音更7号,,43.013303,143.204198714286,2603_02,,0,,
2604_01,,音更8号,,43.017906,143.204751,2604_01,,0,,
2604_02,,音更8号,,43.017085,143.204912857143,2604_02,,0,,
2605_01,,音更9号,,43.0237810000001,143.205360285714,2605_01,,0,,
2605_02,,音更9号,,43.023486,143.205606,2605_02,,0,,
2606_01,,音更10号,,43.02831,143.204747714286,2606_01,,0,,
2606_02,,音更10号,,43.026875,143.205142,2606_02,,0,,
2607_01,,福平,,43.033329,143.204993571429,2607_01,,0,,
2607_02,,福平,,43.033254,143.205187857143,2607_02,,0,,
2608_01,,音更12号,,43.0391020000001,143.210498857143,2608_01,,0,,
2608_02,,音更12号,,43.038567,143.210236,2608_02,,0,,
2621_01,,駒場ターミナル,,43.0472086666666,143.186895571429,2621_01,,0,,
2621_02,,駒場ターミナル,,43.0471336666667,143.187352714286,2621_02,,0,,
2622_01,,南武儀,バス停ポール無し。対向車線側に設置のポール対面に停,43.04266,143.204378714286,2622_01,,0,,
2622_02,,南武儀,,43.04249,143.204293,2622_02,,0,,
2609_01,,中士幌1号,,43.0424210000001,143.213861857143,2609_01,,0,,
2609_02,,中士幌1号,,43.040876,143.212587571429,2609_02,,0,,
2609_03,,中士幌1号,バス停ポール無。交差点西側（西行）に停車。,43.0415035469453,143.21253986405,2609_03,,0,,
2610_01,,中士幌2号,,43.045538,143.216969428571,2610_01,,0,,
2610_02,,中士幌2号,,43.045688,143.217392285714,2610_02,,0,,
2611_01,,中士幌3号,,43.0514730000001,143.219513714286,2611_01,,0,,
2611_02,,中士幌3号,,43.050468,143.219559428571,2611_02,,0,,
2612_01,,中士幌4号,,43.0568000000001,143.220727571429,2612_01,,0,,
2612_02,,中士幌4号,,43.0565,143.220887571429,2612_02,,0,,
2613_01,,中士幌5号,,43.061348,143.221728857143,2613_01,,0,,
2613_02,,中士幌5号,,43.060783,143.221826,2613_02,,0,,
2614_01,,中士幌6号,,43.066279,143.222833285714,2614_01,,0,,
2614_02,,中士幌6号,,43.065289,143.222839,2614_02,,0,,
2615_01,,中士幌7号,,43.0702089999999,143.223724571428,2615_01,,0,,
2615_02,,中士幌7号,,43.070379,143.224010285714,2615_02,,0,,
2616_01,,中士幌8号,,43.076469,143.22512447619,2616_01,,0,,
2616_02,,中士幌8号,,43.075289,143.225094,2616_02,,0,,
2617_01,,中士幌9号,,43.0815363333333,143.226214904762,2617_01,,0,,
2617_02,,中士幌9号,,43.081038,143.226378714286,2617_02,,0,,
5601_01,,中士幌10号,,43.0861386666666,143.227274714286,5601_01,,0,,
5601_02,,中士幌10号,,43.086722,143.227623285714,5601_02,,0,,
5602_01,,中士幌11号,,43.092703,143.228777428572,5602_01,,0,,
5602_02,,中士幌11号,,43.091848,143.228840285714,5602_02,,0,,
5603_01,,中士幌待合所,,43.094941,143.229284571429,5603_01,,0,,
5603_02,,中士幌待合所,,43.094616,143.229427428572,5603_02,,0,,
5604_01,,東中音更入口,,43.0970623333333,143.229759428571,5604_01,,0,,
5604_02,,東中音更入口,,43.096999,143.229976571429,5604_02,,0,,
5605_01,,東団地入口,,43.1017110000001,143.230799809524,5605_01,,0,,
5605_02,,東団地入口,,43.100881,143.230836,5605_02,,0,,
5606_01,,中士幌14号,,43.105852,143.231733857143,5606_01,,0,,
5606_02,,中士幌14号,,43.105817,143.231911,5606_02,,0,,
5607_01,,中士幌15号,,43.1109956666667,143.232836761905,5607_01,,0,,
5607_02,,中士幌15号,,43.109694,143.232772,5607_02,,0,,
5608_01,,中士幌16号,,43.1159723333334,143.233942857143,5608_01,,0,,
5608_02,,中士幌16号,,43.114824,143.23396,5608_02,,0,,
5609_01,,中士幌17号,,43.120887,143.235096571429,5609_01,,0,,
5609_02,,中士幌17号,,43.119957,143.235125142857,5609_02,,0,,
5610_01,,中士幌18号,,43.1257870000001,143.236206714286,5610_01,,0,,
5610_02,,中士幌18号,,43.124812,143.236206714286,5610_02,,0,,
5611_01,,中士幌19号,,43.1308376666667,143.237309809524,5611_01,,0,,
5611_02,,中士幌19号,,43.129601,143.237260285714,5611_02,,0,,
5612_01,,中士幌20号,,43.1357586666667,143.238410285714,5612_01,,0,,
5612_02,,中士幌20号,,43.134617,143.238393142857,5612_02,,0,,
5613_01,,士幌21号,,43.1405616666667,143.239475380952,5613_01,,0,,
5613_02,,士幌21号,,43.13955,143.239477285714,5613_02,,0,,
5614_01,,士幌22号（道の駅ピア21しほろ）,,43.145691,143.240574571429,5614_01,,0,,
5614_02,,士幌22号（道の駅ピア21しほろ）,,43.144511,143.240586,5614_02,,0,,
5615_01,,士幌23号,,43.1507086666667,143.241725,5615_01,,0,,
5615_02,,士幌23号,,43.149252,143.241696428572,5615_02,,0,,
5616_01,,士幌24号,,43.1552490000001,143.242686571429,5616_01,,0,,
5616_02,,士幌24号,,43.154629,143.242703714286,5616_02,,0,,
5617_01,,士幌25号,,43.160343,143.243879571429,5617_01,,0,,
5617_02,,士幌25号,,43.159343,143.243885285714,5617_02,,0,,
5618_01,,士幌,,43.1630363333334,143.244477428571,5618_01,,0,,
5618_02,,士幌,,43.161298,143.244340285714,5618_02,,0,,
5619_01,,士幌農協前,,43.165116,143.244931619048,5619_01,,0,,
5619_02,,士幌農協前,,43.164531,143.245044,5619_02,,0,,
5620_01,,士幌信金前,,43.167432,143.245477285714,5620_01,,0,,
5620_02,,士幌信金前,,43.166662,143.245517285714,5620_02,,0,,
5621_01,,士幌待合所,,43.169491,143.246483857143,5621_01,,0,,
5621_02,,士幌待合所,,43.169441,143.246426714286,5621_02,,0,,
5622_01,,士幌保育所前,,43.1693113333333,143.250015761905,5622_01,,0,,
5622_02,,士幌保育所前,,43.1692779999999,143.248676714286,5622_02,,0,,
5623_01,,士幌西1線,,43.168956,143.253391285715,5623_01,,0,,
5623_02,,士幌西1線,,43.168926,143.252185571429,5623_02,,0,,
5624_01,,士幌基線,,43.16818,143.260081571429,5624_01,,0,,
5624_02,,士幌基線,,43.168095,143.259081571429,5624_02,,0,,
5625_01,,士幌27号,,43.167528,143.265465,5625_01,,0,,
5625_02,,士幌27号,,43.167493,143.264207857143,5625_02,,0,,
5626_01,,士幌28号,,43.172796,143.267516285714,5626_01,,0,,
5626_02,,士幌28号,,43.171726,143.267504857143,5626_02,,0,,
5627_01,,士幌29号,,43.177774,143.268639857143,5627_01,,0,,
5627_02,,士幌29号,,43.176879,143.268674142857,5627_02,,0,,
5628_01,,士幌30号,,43.182661,143.269759,5628_01,,0,,
5628_02,,士幌30号,,43.181646,143.269759,5628_02,,0,,
5629_01,,士幌31号,,43.187543,143.270871,5629_01,,0,,
5629_02,,士幌31号,,43.186763,143.270916714286,5629_02,,0,,
5630_01,,士幌32号,,43.1925536,143.271985428571,5630_01,,0,,
5630_02,,士幌32号,,43.1911486,143.271894,5630_02,,0,,
5631_01,,士幌33号,,43.197273,143.273080285714,5631_01,,0,,
5631_02,,士幌33号,,43.196623,143.273154571429,5631_02,,0,,
5632_01,,士幌34号,,43.2023440000001,143.274120142857,5632_01,,0,,
5632_02,,士幌34号,,43.201439,143.274183,5632_02,,0,,
5633_01,,士幌35号,,43.206292,143.274963142857,5633_01,,0,,
5633_02,,士幌35号,,43.205792,143.275106,5633_02,,0,,
6601_01,,上士幌36号,,43.21204,143.276402142857,6601_01,,0,,
6601_02,,上士幌36号,,43.21161,143.276562142857,6601_02,,0,,
6602_01,,上士幌37号,,43.217,143.277539571429,6602_01,,0,,
6602_02,,上士幌37号,,43.216425,143.277659571429,6602_02,,0,,
6603_01,,上士幌38号,,43.221939,143.278629428571,6603_01,,0,,
6603_02,,上士幌38号,,43.221449,143.278760857143,6603_02,,0,,
6604_01,,上士幌高校前,,43.22603,143.279522428571,6604_01,,0,,
6604_02,,上士幌高校前,,43.225385,143.279636714286,6604_02,,0,,
6605_01,,十勝バス上士幌営業所前,,43.229133,143.280224428572,6605_01,,0,,
6605_02,,十勝バス上士幌営業所前,,43.229038,143.280447285715,6605_02,,0,,
6606_01,,上士幌小学校前,,43.230433,143.281292428572,6606_01,,0,,
6606_02,,上士幌小学校前,,43.230228,143.281258142857,6606_02,,0,,
6607_01,,上士幌11区,,43.231572,143.284905142857,6607_01,,0,,
6607_02,,上士幌11区,,43.2315103333333,143.285289904762,6607_02,,0,,
6608_01,,上士幌東2線,,43.232381,143.287553,6608_01,,0,,
6608_02,,上士幌東2線,,43.232181,143.287473,6608_02,,0,,
6609_01,,上士幌農協前,,43.233434,143.290876714286,6609_01,,0,,
6609_02,,上士幌農協前,,43.2331589999999,143.290682428571,6609_02,,0,,
6615_01,,ハレタかみしほろ前,,43.230681,143.291596571428,6615_01,,0,,
6610_01,,かちまい上士幌前,,43.234106,143.293065142857,6610_01,,0,,
6610_02,,かちまい上士幌前,,43.234026,143.293379428571,6610_02,,0,,
6611_01,,上士幌,,43.2347370000001,143.295051857143,6611_01,,0,,
6611_02,,上士幌,,43.234517,143.294886142857,6611_02,,0,,
6612_01,,上士幌交通ターミナル,,43.231611,143.295466714286,6612_01,,0,,
6612_02,,上士幌交通ターミナル,,43.2316326666666,143.295301,6612_02,,0,,
6613_01,,拓殖バス上士幌営業所前,バス停ポールは営業所出入口前（上下線共通）,43.229456,143.294553,6613_01,,0,,
9148_01,,大通11丁目,,42.9921090457261,143.199796223079,9148_01,,0,,
1170_01,,運転免許試験場,,42.9383293333333,143.15062947619,1170_01,,0,,
1170_02,,運転免許試験場,,42.9382254024078,143.15084112945,1170_02,,0,,
9846_01,46,三丁目広場前,,43.0131980004618,142.883119468046,9846_01,,0,,
9134_01,,老人ホーム入口,,43.0016734210302,143.192667961121,9134_01,,0,,
9135_01,,雄飛が丘仲区,,43.0005613888733,143.191230646956,9135_01,,0,,
4514_01,,新得役場前,,43.080226,142.840369428572,4514_01,,0,,
4514_02,,新得役場前,,43.080149,142.840134571429,4514_02,,0,,
9136_01,,雄飛が丘会館前,,42.9984602595802,143.191531404234,9136_01,,0,,
9101_01,,共栄コミセン前,,42.970066281147,143.204979533964,9101_01,,0,,
9101_02,,共栄コミセン前,,42.9700719819578,143.204866298512,9101_02,,0,,
9102_01,,耳鼻咽喉科前,,42.968151318077,143.205515276691,9102_01,,0,,
9102_02,,耳鼻咽喉科前,,42.9681493144823,143.205353643755,9102_02,,0,,
9103_01,,田中医院前,,42.9673821444171,143.207738477107,9103_01,,0,,
1171_01,,浄化センター前,バス停ポール無し,42.9386996666667,143.155769285716,1171_01,,0,,
1171_02,,浄化センター前,,42.938563,143.15571595238,1171_02,,0,,
1500_01,,柏林台駅前,,42.930983,143.163019,1500_01,,0,,
1501_01,,西14条北5丁目,,42.935383,143.179176,1501_01,,0,,
1502_01,,西12条北7丁目,,42.938599,143.183936,1502_01,,0,,
2901_01,,鈴蘭郵便局前,,42.951988,143.187539,2901_01,,0,,
9104_01,,宏明館病院前,,42.9697207656745,143.208531594178,9104_01,,0,,
9105_01,,柳町小学校前,,42.9678149050158,143.213240504265,9105_01,,0,,
9106_01,,柳町南区,,42.9689924959696,143.21518778801,9106_01,,0,,
2551_01,,白樺並木前,,43.0452946666667,143.172106428571,2551_01,,0,,
2551_02,,白樺並木前,,43.045425,143.172169,2551_02,,0,,
3569_01,,とかち鹿追ジオパークビジターセンター前,バス停ポールは帯広駅方面行のみ設置,43.196241,143.028064,3569_01,,0,,
3569_02,,とかち鹿追ジオパークビジターセンター前,,43.196205,143.028275000001,3569_02,,0,,
4508_01,,佐幌東1線,バス停ポール無し。対向車線側に設置のポール対面に停,43.095917,142.870116428571,4508_01,,0,,
4508_02,,佐幌東1線,,43.096077,142.870042142857,4508_02,,0,,
4511_01,,新得坂,,43.0885606806876,142.836742282522,4511_01,,0,,
4511_02,,新得坂,,43.0887400471872,142.836827445243,4511_02,,0,,
9107_01,,柳町中央公園前,,42.9705861348123,143.216663002968,9107_01,,0,,
9108_02,,柳町仲区,,42.9717401153605,143.217344284058,9108_02,,0,,
9109_01,,柳町北2公園前,,42.9746799448284,143.216722011566,9109_01,,0,,
9110_01,,柳町北区東,,42.9757789075132,143.216024637222,9110_01,,0,,
9111_01,,柳町公住前,,42.9754836301666,143.214504952026,9111_01,,0,,
9112_01,,柳町北区,,42.9733140631646,143.21450650692,9112_01,,0,,
9113_01,,十勝勤医協柳町医院前,,42.9728587619661,143.212607502937,9113_01,,0,,
9114_01,,木野大通東17丁目,,42.9726036362945,143.209061972487,9114_01,,0,,
9115_01,,木野大通西18丁目,,42.9727645617181,143.205826878548,9115_01,,0,,
9116_01,,木野大通西19丁目,,42.9751116818568,143.206025362015,9116_01,,0,,
9117_01,,開進生活館前,,42.977360595423,143.20633649826,9117_01,,0,,
9118_01,,柳町9線,,42.9776510179713,143.210746049881,9118_01,,0,,
9119_01,,東通18丁目,,42.9825881174107,143.211126923561,9119_01,,0,,
9120_01,,新通15丁目,,42.9873953168673,143.205665946007,9120_01,,0,,
9121_01,,森林組合前,,42.9879497498516,143.210429549217,9121_01,,0,,
9122_01,,東通12丁目,,42.9916292669086,143.20993065834,9122_01,,0,,
9123_01,,梢公住前,,42.9926808417216,143.208020925522,9123_01,,0,,
9124_01,,総合福祉センター前,,42.992366939782,143.203729391098,9124_01,,0,,
9125_01,,消防分団前,,42.9952665402146,143.202629685402,9125_01,,0,,
9126_01,,保健センター前,,42.9956628228651,143.203949332237,9126_01,,0,,
9127_01,,新通会館前,,42.9972322268749,143.204684257507,9127_01,,0,,
9128_01,,ひなげし公園前,,42.9995451849827,143.203167526676,9128_01,,0,,
9129_01,,新通1丁目,,43.0026738317358,143.201562166214,9129_01,,0,,
9130_01,,新通北1丁目,,43.004070443516,143.201374411583,9130_01,,0,,
9131_01,,新通北2丁目,,43.0051828041891,143.199560538553,9131_01,,0,,
9132_01,,みはる野団地,,43.0035458338378,143.19861138643,9132_01,,0,,
9133_01,,大通2丁目,,43.0019971426547,143.197405823611,9133_01,,0,,
9137_01,,音更中学校前,,42.9959688586229,143.191863298416,9137_01,,0,,
9138_01,,雄飛が丘南区,,42.9940031313676,143.192142947889,9138_01,,0,,
9139_01,,温水プール前,,42.9904010976045,143.190634846687,9139_01,,0,,
9140_01,,サンドーム前,,42.9915704097098,143.194159269333,9140_01,,0,,
9141_01,,桜が丘,,42.9976716469944,143.193343877792,9141_01,,0,,
9142_01,,プロスパ6前,,42.9975396167913,143.198107829552,9142_01,,0,,
9143_01,,エーコープ音更前,,42.9991072305131,143.198020950579,9143_01,,0,,
9144_01,,JA音更,,42.9979590174322,143.199130449932,9144_01,,0,,
9145_01,,交通公園前,,42.9965299241788,143.200746774673,9145_01,,0,,
9146_01,,役場前クリニック,,42.9952133246117,143.199636104039,9146_01,,0,,
9147_01,,音更役場前,,42.9935141551457,143.199608701254,9147_01,,0,,
9149_01,,改善センター前,,42.9915499783492,143.196044278608,9149_01,,0,,
9150_01,,大谷短大前,,42.989418278767,143.196314715118,9150_01,,0,,
9151_01,,ふれあい交流館前,,42.98655593571,143.196718096733,9151_01,,0,,
9152_01,,緑ヶ丘病院前,,42.9841249659824,143.196983517374,9152_01,,0,,
9153_01,,緑陽台北区,,42.9761596148542,143.194417811001,9153_01,,0,,
9154_01,,緑陽台公住前,,42.9753589494276,143.192528486252,9154_01,,0,,
9155_01,,緑陽台北3公園前,,42.9739381327533,143.193306326866,9155_01,,0,,
9156_01,,緑陽台8線,,42.9727077368318,143.196161596729,9156_01,,0,,
9157_01,,緑陽台公園前,,42.969485303791,143.196589000833,9157_01,,0,,
9158_01,,緑陽台仲区,,42.966617665027,143.195173144341,9158_01,,0,,
9159_01,,緑陽台南区,,42.9642202618604,143.19276883546,9159_01,,0,,
9160_01,,緑陽会館前,,42.9631985304725,143.195387721062,9160_01,,0,,
9161_01,,音更病院前,,42.9639229918303,143.197523110624,9161_01,,0,,
9162_01,,緑陽台歯科前,,42.9660535193836,143.197195296473,9162_01,,0,,
9163_01,,文化センター入口,,42.9675986384674,143.19942677797,9163_01,,0,,
9164_01,,親水広場前,,42.9708569693747,143.199003338814,9164_01,,0,,
9165_01,,つつじ公園前,,42.9653222634842,143.209244012833,9165_01,,0,,
9166_01,,木野大通東14丁目,,42.9635086561152,143.211089372635,9166_01,,0,,
9167_01,,佐治整形前,,42.9625136901395,143.207823491658,9167_01,,0,,
9168_01,,徳洲会病院前,,42.9622781480296,143.20459667748,9168_01,,0,,
9169_01,,木野西通13丁目,,42.9606742948125,143.202763795853,9169_01,,0,,
9170_01,,木野西通12丁目,,42.9574550581849,143.204464316368,9170_01,,0,,
9171_01,,下音更小学校前,,42.9571390762359,143.202490325617,9171_01,,0,,
9172_01,,木野西通11丁目,,42.9557473255713,143.201993766752,9172_01,,0,,
9173_01,,木野西通9丁目,,42.9527216852538,143.202373358683,9173_01,,0,,
9174_01,,木野コミセン前,,42.9510350018786,143.201421291874,9174_01,,0,,
9175_01,,木野支所前,,42.9481536814832,143.203696737,9175_01,,0,,
9176_01,,木野農協前,,42.9470260035885,143.204073763455,9176_01,,0,,
9177_01,,北宝来西通り,,42.9483827177425,143.215439333643,9177_01,,0,,
9178_01,,北宝来,,42.952753800768,143.214874552558,9178_01,,0,,
9179_01,,北宝来北,,42.9529297787749,143.22177307972,9179_01,,0,,
9180_01,,北宝来東,,42.950844724298,143.221196635938,9180_01,,0,,
9181_01,,北宝来中央,,42.9500638752342,143.218821714625,9181_01,,0,,
9182_01,,宝来中央,,42.9473915347102,143.21918462931,9182_01,,0,,
9183_01,,宝来中央公園前,,42.9457705089876,143.219598505636,9183_01,,0,,
9184_01,,宝来東団地前,,42.9445965775918,143.222895407115,9184_01,,0,,
9185_01,,ひびき野東町,,42.9417568964003,143.223282694817,9185_01,,0,,
9186_01,,ひびき野仲町,,42.9407901375505,143.220237104846,9186_01,,0,,
9187_01,,ひびき野西町,,42.9422674061674,143.216275715267,9187_01,,0,,
9188_01,,宝来西町南2丁目,,42.9433380450467,143.216131575715,9188_01,,0,,
9189_01,,宝来西通り,,42.9446107140641,143.215969593571,9189_01,,0,,
9190_01,,宝来,,42.9478127177424,143.214759333643,9190_01,,0,,
9191_01,,木野東会館前,,42.9466594356653,143.207325184114,9191_01,,0,,
9192_01,,木野東通4丁目,,42.9432962642444,143.206813931465,9192_01,,0,,
9193_01,,木野南公園前,,42.9413327804015,143.206308626567,9193_01,,0,,
9194_01,,千野会館前,,42.9402064198382,143.204932420207,9194_01,,0,,
9195_01,,木野大通西2丁目,,42.9410555233662,143.202713533947,9195_01,,0,,
9196_01,,鈴蘭公園前,,42.94542761327,143.197494420155,9196_01,,0,,
9197_01,,南鈴蘭,,42.9472103685052,143.196104101366,9197_01,,0,,
9198_01,,南鈴蘭南2丁目,,42.9479252314481,143.197965439998,9198_01,,0,,
9199_01,,南鈴蘭北2丁目,,42.9506013162945,143.198044274652,9199_01,,0,,
9200_01,,南鈴蘭北4線,,42.9516757716541,143.196632967099,9200_01,,0,,
9201_01,,清和広場前,,42.9514694533564,143.193110408876,9201_01,,0,,
9202_01,,おおや整形前,,42.9488399561835,143.188815490859,9202_01,,0,,
9203_01,,鈴蘭郵便局前,,42.9513144809945,143.187825289792,9203_01,,0,,
9204_01,,中鈴蘭,,42.9537131264414,143.187506573519,9204_01,,0,,
9205_01,,青葉町,,42.9552541756238,143.187255146266,9205_01,,0,,
9206_01,,北蘭南5丁目,,42.9569290762359,143.187091648249,9206_01,,0,,
9207_01,,北蘭憩いの家前,,42.9585749188803,143.18935508213,9207_01,,0,,
9208_01,,北蘭団地,,42.9569010821989,143.192122773285,9208_01,,0,,
9209_01,,下音更中学校入口,,42.9548518526128,143.195818266721,9209_01,,0,,
9210_01,,すずらん歯科前,,42.9518311572175,143.200189457212,9210_01,,0,,
9211_01,,木野新町公園前,,42.9540417822074,143.199481005484,9211_01,,0,,
9212_01,,共栄台幼稚園前,,42.956024323968,143.198576869888,9212_01,,0,,
9213_01,,共栄台12丁目,,42.9572138084637,143.19842141619,9213_01,,0,,
9214_01,,共栄団地,,42.959035242141,143.198169521348,9214_01,,0,,
9215_01,,共栄台13丁目,,42.9610387956904,143.197883216476,9215_01,,0,,
9216_01,,むつみ,,42.9623496235507,143.202137908282,9216_01,,0,,
9217_01,,図書館前,,42.9648740905078,143.201716334866,9217_01,,0,,
9218_01,,文化センター前,,42.9667190905078,143.201487763437,9218_01,,0,,
9701_01,1,JR新得駅前,,43.0822138139861,142.832841459073,9701_01,,0,,
9701_02,1,JR新得駅前,,43.0822488139861,142.832967173359,9701_02,,0,,
9702_01,2,フクハラ新得店前,,43.0818343959138,142.833777666092,9702_01,,0,,
9702_02,2,フクハラ新得店前,,43.081795215398,142.833606004715,9702_02,,0,,
9703_01,3,小松整骨院前,,43.0840832102381,142.832657318203,9703_01,,0,,
9703_02,3,小松整骨院前,,43.0840680259614,142.832838425347,9703_02,,0,,
9704_01,4,一心の1,,43.0835308975239,142.830172777176,9704_01,,0,,
9704_02,4,一心の1,,43.083504256631,142.829814526514,9704_02,,0,,
9705_01,5,新得神社前,,43.0829627939972,142.828633189201,9705_01,,0,,
9705_02,5,新得神社前,,43.0830529069704,142.828563451767,9705_02,,0,,
9706_01,6,やすらぎ荘前,,43.0817638778489,142.826026082039,9706_01,,0,,
9706_02,6,やすらぎ荘前,,43.081618908754,142.825972437859,9706_02,,0,,
9707_01,7,グループホームさくら前,,43.0805610202043,142.826535701752,9707_01,,0,,
9707_02,7,グループホームさくら前,,43.080678564638,142.826353311539,9707_02,,0,,
9708_01,8,新生の1,,43.0797734700611,142.826862931252,9708_01,,0,,
9708_02,8,新生の1,,43.079781306485,142.826707363129,9708_02,,0,,
9709_01,9,サホロクリニック前,バス停ポールは病院玄関前（上下線共通）,43.0792117273432,142.827444504667,9709_01,,0,,
9710_01,10,春光,,43.0784421601969,142.82657511776,9710_01,,0,,
9711_01,11,春陽西,,43.0776615290693,142.824255824089,9711_01,,0,,
9712_01,12,春陽南,,43.0775557338834,142.825248241425,9712_01,,0,,
9713_01,13,セイコーマート西3条店前,,43.0776301823476,142.827726602554,9713_01,,0,,
9714_01,14,ひばり北,,43.0767250426775,142.825827598572,9714_01,,0,,
9715_01,15,つつじヶ丘北,,43.0763606310716,142.824191451073,9715_01,,0,,
9716_01,16,つつじヶ丘公園,,43.0760275667006,142.822721600533,9716_01,,0,,
9717_01,17,つつじヶ丘西,,43.0754280429431,142.82196521759,9717_01,,0,,
9718_01,18,つつじヶ丘南,,43.0759021776326,142.82411634922,9718_01,,0,,
9719_01,19,ひばり西,,43.0762078133014,142.825468182564,9719_01,,0,,
9720_01,20,ひばり東,,43.0764041414978,142.826315760612,9720_01,,0,,
9721_01,21,若草会館前,,43.0736137661098,142.828204035759,9721_01,,0,,
9722_01,22,しらかば,,43.0721246866275,142.827796339989,9722_01,,0,,
9723_01,23,若草,,43.0730925927361,142.829217910767,9723_01,,0,,
9724_01,24,さくら西,,43.0735667429483,142.829813361168,9724_01,,0,,
9725_01,25,さくら中央,,43.0741643878195,142.830204613157,9725_01,,0,,
9726_01,26,広和,,43.0763834678803,142.832753645581,9726_01,,0,,
9791_01,20-2,ひろね前,,43.0749566341295,142.828847532458,9791_01,,0,,
9727_01,27,西栄,,43.0777347740487,142.83116239557,9727_01,,0,,
9728_01,28,ひまわり,,43.0787351408839,142.830666303635,9728_01,,0,,
9729_01,29,西和東,,43.0798126521805,142.830221056938,9729_01,,0,,
9730_01,30,西和北,,43.0797617154253,142.828761935234,9730_01,,0,,
9731_01,31,相馬商店前,,43.0823045672341,142.833568453789,9731_01,,0,,
9732_01,32,ハプセブン前,,43.0807211376035,142.834216848635,9732_01,,0,,
9733_01,33,馬場クリーニング前,,43.0797382061537,142.834635972977,9733_01,,0,,
9734_01,34,永交西,,43.0785784098408,142.835150957108,9734_01,,0,,
9735_01,35,末広北,,43.0772032061537,142.835727401548,9735_01,,0,,
9736_01,36,末広南,,43.0766035721422,142.83596098423,9736_01,,0,,
9737_01,37,あけぼの西,,43.0764703463938,142.836958765984,9737_01,,0,,
9738_01,38,あけぼの東,,43.0767799003386,142.838305234909,9738_01,,0,,
9739_01,39,公営,,43.0772696950472,142.839152812958,9739_01,,0,,
9740_01,40,新得クリニック前,,43.0785200443193,142.838450424064,9740_01,,0,,
9740_02,40,新得クリニック前,,43.0785940829452,142.838337421417,9740_02,,0,,
9741_01,41,南進,,43.0780611973986,142.83658862114,9741_01,,0,,
9742_01,42,永交中央,,43.0787209581232,142.83570780698,9742_01,,0,,
9743_01,43,エーコープ前,,43.0801104332085,142.835102677345,9743_01,,0,,
9743_02,43,エーコープ前,,43.0803494402237,142.835177779198,9743_02,,0,,
9744_01,44,図書館前,,43.0803102587458,142.835912704468,9744_01,,0,,
9745_01,45,なごみ前,バス停ポールは施設玄関前（上下線共通）,43.0802739135635,142.837694390989,9745_01,,0,,
9747_01,47,新得診療所前,,43.0826571889892,142.839860916138,9747_01,,0,,
9747_02,47,新得診療所前,,43.0826301142909,142.839736949872,9747_02,,0,,
9748_01,48,温水プール前,,43.082019633791,142.84011234405,9748_01,,0,,
9748_02,48,温水プール前,,43.0820001374994,142.839995492859,9748_02,,0,,
9749_01,49,町民体育館前,,43.0811441482983,142.840488902915,9749_01,,0,,
9749_02,49,町民体育館前,,43.0811101142909,142.840359807014,9749_02,,0,,
9750_01,50,公民館前（新得町役場前）,バス停ポールは施設玄関前（上下線共通）,43.0800453158093,142.839531121161,9750_01,,0,,
9751_01,51,新栄,,43.0819362652547,142.838712930679,9751_01,,0,,
9752_01,52,わたなべ歯科前,,43.0824221036498,142.83816576004,9752_01,,0,,
9753_01,53,新泉寺前,,43.0821008234208,142.836717367172,9753_01,,0,,
9754_01,54,帯広信用金庫前,,43.0815601323037,142.834239006042,9754_01,,0,,
9755_01,55,よしむら歯科前,,43.0827590560851,142.833874225616,9755_01,,0,,
9755_02,55,よしむら歯科前,,43.0826532709697,142.833992242813,9755_02,,0,,
9756_01,56,新得郵便局前,,43.0818539937728,142.83454477787,9756_01,,0,,
9756_02,56,新得郵便局前,,43.0818148129363,142.834410667419,9756_02,,0,,
9757_01,57,栄町北,,43.0857131568352,142.838670015335,9757_01,,0,,
9758_01,58,栄町東,,43.084847315578,142.8395819664,9758_01,,0,,
9759_01,59,幼稚園前,バス停ポールは屈足方面行のみ設置,43.0850460440608,142.835508623777,9759_01,,0,,
9759_02,59,幼稚園前,,43.0851141401586,142.835493580126,9759_02,,0,,
9760_01,60,親和,,43.0854389089405,142.833772301674,9760_01,,0,,
9760_02,60,親和,,43.0856152111585,142.833842039108,9760_02,,0,,
9761_01,61,元町寿会館前,,43.0872214947263,142.833091020584,9761_01,,0,,
9761_02,61,元町寿会館前,,43.0872410832202,142.833176851273,9761_02,,0,,
9762_01,62,新得坂,,43.0887006195801,142.83674815421,9762_01,,0,,
9762_02,62,新得坂,,43.0885356195801,142.836655676035,9762_02,,0,,
9763_01,63,かえで西,,43.0923641530308,142.85195837853,9763_01,,0,,
9764_01,64,かえで中央,,43.0930499355302,142.853273166239,9764_01,,0,,
9765_01,65,佐幌6号,,43.0943402344512,142.86239042226,9765_01,,0,,
9765_02,65,佐幌6号,,43.0944766691937,142.863845229149,9765_02,,0,,
9766_01,66,幸町4丁目,,43.0949869244416,142.905426699039,9766_01,,0,,
9767_01,67,ムラカミ石油前,,43.0958940296606,142.905140169275,9767_01,,0,,
9768_01,68,もみやま電気商会前,,43.0969875762539,142.904802560806,9768_01,,0,,
9769_01,69,幸町2丁目,,43.0983763740151,142.904361978792,9769_01,,0,,
9769_02,69,幸町2丁目,,43.0984163740151,142.904504835935,9769_02,,0,,
9770_01,70,フクハラ屈足店前,,43.0995361210004,142.904000463578,9770_01,,0,,
9771_01,71,柏町1丁目,,43.1009073488355,142.903566177205,9771_01,,0,,
9773_01,73,屈足常盤,,43.1024365880821,142.906686873644,9773_01,,0,,
9774_01,74,屈足南小学校裏門前,,43.1039950959667,142.906199292297,9774_01,,0,,
9775_01,75,永福寺前,,43.1055664805057,142.905720226157,9775_01,,0,,
9777_01,77,屈足22号,,43.1047295830065,142.902422275074,9777_01,,0,,
9778_01,78,総合会館前,,43.1037070128653,142.902718134204,9778_01,,0,,
9779_01,79,あいの郷ふれあい前,,43.1022902499946,142.903151952329,9779_01,,0,,
9780_01,80,朝日の1,,43.0980177616228,142.903853058815,9780_01,,0,,
9781_01,81,屈足親和,,43.0994004532843,142.902013063431,9781_01,,0,,
9782_01,82,第2新進,,43.1010455450001,142.901535630226,9782_01,,0,,
9783_01,83,新緑,,43.1025771700871,142.901168400726,9783_01,,0,,
9784_01,84,新友西,,43.1035091791743,142.902114987373,9784_01,,0,,
9785_01,85,立教寺前,,43.1048821667485,142.899384732062,9785_01,,0,,
9786_01,86,屈足中学校前,,43.1045026727032,142.896997799503,9786_01,,0,,
9787_01,87,屈足坂前,,43.1021063290631,142.883114218712,9787_01,,0,,
9801_01,1,十勝清水駅前,,43.0136252039039,142.880085188266,9801_01,,0,,
9801_02,1,十勝清水駅前,,43.0135623157007,142.880171368822,9801_02,,0,,
9802_01,2,清水赤十字病院前,バス停ポールは病院玄関前（上下線共通）,43.0121911920582,142.883448561968,9802_01,,0,,
9803_01,3,清水町役場前,バス停ポールは役場玄関前（上下線共通）,43.0115678854549,142.884580803381,9803_01,,0,,
9804_01,4,スーパープラザいちまる前,バス停ポールは中央出入口前（上下線共通）,43.0084730001634,142.89128236163,9804_01,,0,,
9805_01,5,東団地　南10条6丁目,,43.0087782011142,142.895116637454,9805_01,,0,,
9806_01,6,公苑東町　南9条9丁目,,43.0107812159274,142.897188818686,9806_01,,0,,
9807_01,7,桂町　南8条9丁目,,43.0123592406628,142.895704507828,9807_01,,0,,
9809_01,9,清和団地集会所前,,43.0182466272659,142.895629056107,9809_01,,0,,
9810_01,10,清和　南2条11丁目,,43.0185359052024,142.892524224734,9810_01,,0,,
9812_01,12,新栄　本通8丁目,,43.0187015937001,142.887491583824,9812_01,,0,,
9811_01,11,老人福祉センター前,,43.015720730774,142.888290882111,9811_01,,0,,
9814_01,14,スーパーフクハラ前,,43.0168150373537,142.884052991867,9814_01,,0,,
9815_01,15,前田クリニック前,,43.0146024852261,142.883626985915,9815_01,,0,,
9816_01,16,清水郵便局前,,43.0137438680814,142.88341999054,9816_01,,0,,
9817_01,17,本通3丁目,,43.0149519571231,142.881816029549,9817_01,,0,,
9818_01,18,石川商店前,,43.0103273531721,142.877873182297,9818_01,,0,,
9819_01,19,西文化児童遊園地前,,43.0080796463521,142.876033186913,9819_01,,0,,
9821_01,21,西清水　南1条西7丁目,,43.0085516790916,142.872922291385,9821_01,,0,,
9825_01,25,神居福祉館前,,43.0123945432459,142.871103286743,9825_01,,0,,
9826_01,26,宮の森団地前,,43.0143747685601,142.873663747079,9826_01,,0,,
9827_01,27,北星　北3条6丁目,,43.0188268011511,142.881788157855,9827_01,,0,,
9828_01,28,啓仁会病院前,バス停ポールは病院玄関前（上下線共通）,42.9465044610889,142.940829992294,9828_01,,0,,
9829_01,29,御影郵便局前,,42.945232190745,142.938930988312,9829_01,,0,,
9829_02,29,御影郵便局前,,42.9452871655779,142.938770055771,9829_02,,0,,
9834_01,34,御影駅前,,42.9427088439562,142.935854922151,9834_01,,0,,
9845_01,45,羽帯　国道38号線沿い,,42.9592335039813,142.908407449722,9845_01,,0,,
9845_02,45,羽帯　国道38号線沿い,,42.9594533530395,142.907377481461,9845_02,,0,,
9792_01,,かえで団地,,43.0921489536405,142.853240823647,9792_01,,0,,
3573_01,,白樺峠,,43.2524426101624,143.092745374389,3573_01,,0,,
3573_02,,白樺峠,,43.2524144959015,143.092958396875,3573_02,,0,,
6616_01,,道の駅かみしほろ,,43.2251755365618,143.290856789907,6616_01,,0,,
6617_01,,かみしほろ情報館前,,43.2280838698951,143.29099012324,6617_01,,0,,
6618_01,,しんくみ上士幌支店前,,43.2319599039128,143.291928817694,6618_01,,0,,
9793_01,76-2,屈足神社前,,43.1059530617561,142.902048281026,9793_01,,0,,
9794_01,76,北友,,43.1059431132242,142.903357550212,9794_01,,0,,
9795_01,73-1,屈足保育園西,,43.1008422116668,142.907190776433,9795_01,,0,,
9796_01,73-2,小規模多機能センターらら前,,43.0996064048445,142.906119409359,9796_01,,0,,
9797_01,73-3,小田天光堂薬局前,,43.0993455583933,142.904501452342,9797_01,,0,,
9847_01,48,清水町体育館前,,43.0058665402775,142.872886489138,9847_01,,0,,
9848_01,49,鉄南　北1条西5丁目,,43.0103106407645,142.873498504339,9848_01,,0,,
9849_01,47,ツルハドラッグ前,,43.0178822300842,142.89216772341,9849_01,,0,,
